stationID,longitude,latitude
Ballybunnion,-9.7824,52.54213
Belmullet_Inner,-10.14618,54.23086
Belmullet_Outer,-10.2783,54.2815
Brandon_Bay,-10.095,52.2925
Cork_SmartBuoy,-8.2353,51.76833
Finnis,-9.48543,53.04687
Killard,-9.621628,52.7616
M2,-5.425,53.48
M3,-10.55,51.2166
M4,-10.0,55.0
M5,-6.704,51.69
M6,-15.93,53.0605
Mace_Head,-9.9324,53.3327
South_Hunter,-5.75473,54.87818
Spiddal,-9.271,53.224
Splaugh,-6.27973,52.23938
